{
"type": "FeatureCollection",
"name": "hostpital_4326",
"crs": { "type": "name", "properties": { "name": "urn:ogc:def:crs:OGC:1.3:CRS84" } },
"features": [
{ "type": "Feature", "properties": { "gid": 19, "oid_": 0.0, "name": "โรงพยาบาลกรุงเทพเชียงใหม่", "folderpath": "โรงพยาบาล/โรงพยาบาล", "symbolid": 0.0, "altmode": -1, "base": 0.0, "snippet": null, "popupinfo": null, "haslabel": 0, "labelid": -1.0 }, "geometry": { "type": "Point", "coordinates": [ 99.026420320000057, 18.788531120000073 ] } },
{ "type": "Feature", "properties": { "gid": 45, "oid_": 0.0, "name": "โรงพยาบาลกองบิน 41", "folderpath": "โรงพยาบาล/โรงพยาบาล", "symbolid": 0.0, "altmode": -1, "base": 0.0, "snippet": null, "popupinfo": null, "haslabel": 0, "labelid": -1.0 }, "geometry": { "type": "Point", "coordinates": [ 98.971384360000059, 18.778087690000064 ] } },
{ "type": "Feature", "properties": { "gid": 73, "oid_": 0.0, "name": "โรงพยาบาลกาวิละ", "folderpath": "โรงพยาบาล/โรงพยาบาล", "symbolid": 0.0, "altmode": -1, "base": 0.0, "snippet": null, "popupinfo": null, "haslabel": 0, "labelid": -1.0 }, "geometry": { "type": "Point", "coordinates": [ 99.014834390000033, 18.777942540000026 ] } },
{ "type": "Feature", "properties": { "gid": 168, "oid_": 0.0, "name": "โรงพยาบาลค่ายกาวิละ", "folderpath": "โรงพยาบาล/โรงพยาบาล", "symbolid": 0.0, "altmode": -1, "base": 0.0, "snippet": null, "popupinfo": null, "haslabel": 0, "labelid": -1.0 }, "geometry": { "type": "Point", "coordinates": [ 99.014878740000086, 18.777926490000027 ] } },
{ "type": "Feature", "properties": { "gid": 282, "oid_": 0.0, "name": "โรงพยาบาลช้างเผือก", "folderpath": "โรงพยาบาล/โรงพยาบาล", "symbolid": 0.0, "altmode": -1, "base": 0.0, "snippet": null, "popupinfo": null, "haslabel": 0, "labelid": -1.0 }, "geometry": { "type": "Point", "coordinates": [ 98.987042760000065, 18.798882440000057 ] } },
{ "type": "Feature", "properties": { "gid": 306, "oid_": 0.0, "name": "โรงพยาบาลเชียงใหม่ใกล้หมอ", "folderpath": "โรงพยาบาล/โรงพยาบาล", "symbolid": 0.0, "altmode": -1, "base": 0.0, "snippet": null, "popupinfo": null, "haslabel": 0, "labelid": -1.0 }, "geometry": { "type": "Point", "coordinates": [ 98.972343760000058, 18.760621130000061 ] } },
{ "type": "Feature", "properties": { "gid": 307, "oid_": 0.0, "name": "โรงพยาบาลเชียงใหม่เมดิคอลเซ็นเตอร์", "folderpath": "โรงพยาบาล/โรงพยาบาล", "symbolid": 0.0, "altmode": -1, "base": 0.0, "snippet": null, "popupinfo": null, "haslabel": 0, "labelid": -1.0 }, "geometry": { "type": "Point", "coordinates": [ 98.988435200000083, 18.780181040000059 ] } },
{ "type": "Feature", "properties": { "gid": 308, "oid_": 0.0, "name": "โรงพยาบาลเชียงใหม่ราม", "folderpath": "โรงพยาบาล/โรงพยาบาล", "symbolid": 0.0, "altmode": -1, "base": 0.0, "snippet": null, "popupinfo": null, "haslabel": 0, "labelid": -1.0 }, "geometry": { "type": "Point", "coordinates": [ 98.977756770000042, 18.795082310000055 ] } },
{ "type": "Feature", "properties": { "gid": 309, "oid_": 0.0, "name": "โรงพยาบาลเชียงใหม่ฮอสพิทอล", "folderpath": "โรงพยาบาล/โรงพยาบาล", "symbolid": 0.0, "altmode": -1, "base": 0.0, "snippet": null, "popupinfo": null, "haslabel": 0, "labelid": -1.0 }, "geometry": { "type": "Point", "coordinates": [ 98.981507450000038, 18.810672930000067 ] } },
{ "type": "Feature", "properties": { "gid": 323, "oid_": 0.0, "name": "โรงพยาบาลเซ็นทรัลเชียงใหม่เมโมเรียล", "folderpath": "โรงพยาบาล/โรงพยาบาล", "symbolid": 0.0, "altmode": -1, "base": 0.0, "snippet": null, "popupinfo": null, "haslabel": 0, "labelid": -1.0 }, "geometry": { "type": "Point", "coordinates": [ 98.998322120000068, 18.773120650000067 ] } },
{ "type": "Feature", "properties": { "gid": 350, "oid_": 0.0, "name": "โรงพยาบาลเด็กเชียงใหม่ราม", "folderpath": "โรงพยาบาล/โรงพยาบาล", "symbolid": 0.0, "altmode": -1, "base": 0.0, "snippet": null, "popupinfo": null, "haslabel": 0, "labelid": -1.0 }, "geometry": { "type": "Point", "coordinates": [ 98.977616760000046, 18.794845690000045 ] } },
{ "type": "Feature", "properties": { "gid": 368, "oid_": 0.0, "name": "โรงพยาบาลตาเซนต์ปีเตอร์", "folderpath": "โรงพยาบาล/โรงพยาบาล", "symbolid": 0.0, "altmode": -1, "base": 0.0, "snippet": null, "popupinfo": null, "haslabel": 0, "labelid": -1.0 }, "geometry": { "type": "Point", "coordinates": [ 98.990855850000059, 18.811387110000055 ] } },
{ "type": "Feature", "properties": { "gid": 381, "oid_": 0.0, "name": "โรงพยาบาลตำบลหนองป่าครั่ง", "folderpath": "โรงพยาบาล/โรงพยาบาล", "symbolid": 0.0, "altmode": -1, "base": 0.0, "snippet": null, "popupinfo": null, "haslabel": 0, "labelid": -1.0 }, "geometry": { "type": "Point", "coordinates": [ 99.033841760000087, 18.786334020000027 ] } },
{ "type": "Feature", "properties": { "gid": 399, "oid_": 0.0, "name": "โรงพยาบาลทันตกรรมเอเซียฟอร์จูน", "folderpath": "โรงพยาบาล/โรงพยาบาล", "symbolid": 0.0, "altmode": -1, "base": 0.0, "snippet": null, "popupinfo": null, "haslabel": 0, "labelid": -1.0 }, "geometry": { "type": "Point", "coordinates": [ 99.024824680000052, 18.797045720000028 ] } },
{ "type": "Feature", "properties": { "gid": 442, "oid_": 0.0, "name": "โรงพยาบาลเทพปัญญา", "folderpath": "โรงพยาบาล/โรงพยาบาล", "symbolid": 0.0, "altmode": -1, "base": 0.0, "snippet": null, "popupinfo": null, "haslabel": 0, "labelid": -1.0 }, "geometry": { "type": "Point", "coordinates": [ 99.011475610000048, 18.810244240000031 ] } },
{ "type": "Feature", "properties": { "gid": 443, "oid_": 0.0, "name": "โรงพยาบาลเทพปัญญา2", "folderpath": "โรงพยาบาล/โรงพยาบาล", "symbolid": 0.0, "altmode": -1, "base": 0.0, "snippet": null, "popupinfo": null, "haslabel": 0, "labelid": -1.0 }, "geometry": { "type": "Point", "coordinates": [ 98.987040100000058, 18.798927560000038 ] } },
{ "type": "Feature", "properties": { "gid": 450, "oid_": 0.0, "name": "โรงพยาบาลเทศบาลนครเชียงใหม่", "folderpath": "โรงพยาบาล/โรงพยาบาล", "symbolid": 0.0, "altmode": -1, "base": 0.0, "snippet": null, "popupinfo": null, "haslabel": 0, "labelid": -1.0 }, "geometry": { "type": "Point", "coordinates": [ 99.001766340000074, 18.788482590000058 ] } },
{ "type": "Feature", "properties": { "gid": 489, "oid_": 0.0, "name": "โรงพยาบาลนครพิงค์ สาขาศรีดอนไชย", "folderpath": "โรงพยาบาล/โรงพยาบาล", "symbolid": 0.0, "altmode": -1, "base": 0.0, "snippet": null, "popupinfo": null, "haslabel": 0, "labelid": -1.0 }, "geometry": { "type": "Point", "coordinates": [ 98.997346050000033, 18.781548760000078 ] } },
{ "type": "Feature", "properties": { "gid": 490, "oid_": 0.0, "name": "โรงพยาบาลนครพิงค์สาขาศรีดอนไชย", "folderpath": "โรงพยาบาล/โรงพยาบาล", "symbolid": 0.0, "altmode": -1, "base": 0.0, "snippet": null, "popupinfo": null, "haslabel": 0, "labelid": -1.0 }, "geometry": { "type": "Point", "coordinates": [ 98.997343750000084, 18.781593900000075 ] } },
{ "type": "Feature", "properties": { "gid": 554, "oid_": 0.0, "name": "โรงพยาบาลบรรเทาทุกข์โบราณภาคเหนือชีวกโกมารภัจจ์", "folderpath": "โรงพยาบาล/โรงพยาบาล", "symbolid": 0.0, "altmode": -1, "base": 0.0, "snippet": null, "popupinfo": null, "haslabel": 0, "labelid": -1.0 }, "geometry": { "type": "Point", "coordinates": [ 98.97822769000004, 18.771933400000023 ] } },
{ "type": "Feature", "properties": { "gid": 692, "oid_": 0.0, "name": "โรงพยาบาลประสาทเชียงใหม่", "folderpath": "โรงพยาบาล/โรงพยาบาล", "symbolid": 0.0, "altmode": -1, "base": 0.0, "snippet": null, "popupinfo": null, "haslabel": 0, "labelid": -1.0 }, "geometry": { "type": "Point", "coordinates": [ 98.96957309000004, 18.789727750000054 ] } },
{ "type": "Feature", "properties": { "gid": 901, "oid_": 0.0, "name": "โรงพยาบาลมหาราชนครเชียงใหม่", "folderpath": "โรงพยาบาล/โรงพยาบาล", "symbolid": 0.0, "altmode": -1, "base": 0.0, "snippet": null, "popupinfo": null, "haslabel": 0, "labelid": -1.0 }, "geometry": { "type": "Point", "coordinates": [ 98.974321220000036, 18.789529240000036 ] } },
{ "type": "Feature", "properties": { "gid": 945, "oid_": 0.0, "name": "โรงพยาบาลแมคคอร์มิค", "folderpath": "โรงพยาบาล/โรงพยาบาล", "symbolid": 0.0, "altmode": -1, "base": 0.0, "snippet": null, "popupinfo": null, "haslabel": 0, "labelid": -1.0 }, "geometry": { "type": "Point", "coordinates": [ 99.010827650000067, 18.79822930000006 ] } },
{ "type": "Feature", "properties": { "gid": 946, "oid_": 0.0, "name": "โรงพยาบาลแมคเคน", "folderpath": "โรงพยาบาล/โรงพยาบาล", "symbolid": 0.0, "altmode": -1, "base": 0.0, "snippet": null, "popupinfo": null, "haslabel": 0, "labelid": -1.0 }, "geometry": { "type": "Point", "coordinates": [ 98.986606150000057, 18.728689910000071 ] } },
{ "type": "Feature", "properties": { "gid": 1016, "oid_": 0.0, "name": "โรงพยาบาลราชเวช", "folderpath": "โรงพยาบาล/โรงพยาบาล", "symbolid": 0.0, "altmode": -1, "base": 0.0, "snippet": null, "popupinfo": null, "haslabel": 0, "labelid": -1.0 }, "geometry": { "type": "Point", "coordinates": [ 99.004179840000063, 18.766911480000033 ] } },
{ "type": "Feature", "properties": { "gid": 1028, "oid_": 0.0, "name": "โรงพยาบาลโรคฟัน", "folderpath": "โรงพยาบาล/โรงพยาบาล", "symbolid": 0.0, "altmode": -1, "base": 0.0, "snippet": null, "popupinfo": null, "haslabel": 0, "labelid": -1.0 }, "geometry": { "type": "Point", "coordinates": [ 98.981496620000087, 18.810722390000024 ] } },
{ "type": "Feature", "properties": { "gid": 1044, "oid_": 0.0, "name": "โรงพยาบาลลานนา", "folderpath": "โรงพยาบาล/โรงพยาบาล", "symbolid": 0.0, "altmode": -1, "base": 0.0, "snippet": null, "popupinfo": null, "haslabel": 0, "labelid": -1.0 }, "geometry": { "type": "Point", "coordinates": [ 98.991303610000045, 18.812601130000075 ] } },
{ "type": "Feature", "properties": { "gid": 1045, "oid_": 0.0, "name": "โรงพยาบาลลานนา 2", "folderpath": "โรงพยาบาล/โรงพยาบาล", "symbolid": 0.0, "altmode": -1, "base": 0.0, "snippet": null, "popupinfo": null, "haslabel": 0, "labelid": -1.0 }, "geometry": { "type": "Point", "coordinates": [ 98.991277990000071, 18.813039110000034 ] } },
{ "type": "Feature", "properties": { "gid": 1191, "oid_": 0.0, "name": "โรงพยาบาลส่งเสริมสุขภาพเชียงใหม่", "folderpath": "โรงพยาบาล/โรงพยาบาล", "symbolid": 0.0, "altmode": -1, "base": 0.0, "snippet": null, "popupinfo": null, "haslabel": 0, "labelid": -1.0 }, "geometry": { "type": "Point", "coordinates": [ 98.994564020000041, 18.773314840000069 ] } },
{ "type": "Feature", "properties": { "gid": 1265, "oid_": 0.0, "name": "โรงพยาบาลสวนปรุง", "folderpath": "โรงพยาบาล/โรงพยาบาล", "symbolid": 0.0, "altmode": -1, "base": 0.0, "snippet": null, "popupinfo": null, "haslabel": 0, "labelid": -1.0 }, "geometry": { "type": "Point", "coordinates": [ 98.979068030000064, 18.780143500000065 ] } },
{ "type": "Feature", "properties": { "gid": 1469, "oid_": 0.0, "name": "โรงพยาบาลเอ็มทีอินเตอร์เมด", "folderpath": "โรงพยาบาล/โรงพยาบาล", "symbolid": 0.0, "altmode": -1, "base": 0.0, "snippet": null, "popupinfo": null, "haslabel": 0, "labelid": -1.0 }, "geometry": { "type": "Point", "coordinates": [ 99.025021180000067, 18.797392580000064 ] } }
]
}
